City_ID,City,Lat,Lng,Max Temp,Humidity,Cloudiness,Wind Speed,Country,Date
0,atafu village,-8.5421,-172.5159,28.46,72,42,4.85,TK,1685060870
1,bilibino,68.0546,166.4372,9.64,44,93,0.7,RU,1685060873
2,dryden,49.7833,-92.7503,24.16,29,0,6.17,CA,1685060777
3,ribeira grande,38.5167,-28.7,17.65,80,59,4.47,PT,1685061047
4,bredasdorp,-34.5322,20.0403,9.22,81,25,4.17,ZA,1685061052
5,talara,-4.5772,-81.2719,25.42,83,0,7.72,PE,1685061052
6,fockbek,54.3,9.6,7.12,84,0,3.6,DE,1685061052
7,petropavlovsk-kamchatsky,53.0452,158.6483,12.33,54,75,3.0,RU,1685061047
8,grytviken,-54.2811,-36.5092,1.76,93,100,1.57,GS,1685061052
9,pesqueira,-8.3578,-36.6964,18.57,98,40,2.39,BR,1685061052
10,nizhniy odes,63.6445,54.856,15.81,84,100,3.73,RU,1685061052
11,selfoss,63.9331,-20.9971,5.58,82,100,3.7,IS,1685061052
12,miquelon,47.0975,-56.3814,5.0,94,100,13.62,PM,1685061053
13,bel ombre,-4.6167,55.4167,26.91,74,20,4.12,SC,1685061053
14,iskateley,67.6803,53.1512,15.4,84,95,5.77,RU,1685061053
15,mancora,-4.1078,-81.0475,26.88,70,2,6.7,PE,1685061053
16,namibe,-15.1961,12.1522,20.15,69,0,3.67,AO,1685061053
17,adamstown,-25.066,-130.1015,23.47,68,78,3.11,PN,1685061053
18,bethel,41.3712,-73.414,17.17,52,0,2.06,US,1685060876
19,talnakh,69.4865,88.3972,2.34,93,26,3.82,RU,1685061053
20,waitangi,-43.9535,-176.5597,13.79,82,20,2.24,NZ,1685061054
21,kargasok,59.0556,80.8572,9.28,48,6,2.28,RU,1685061054
22,hotan,37.0997,79.9269,18.41,39,100,0.82,CN,1685061054
23,ushuaia,-54.8,-68.3,1.81,87,20,6.17,AR,1685061054
24,qaqortoq,60.7167,-46.0333,0.66,99,100,0.7,GL,1685060957
25,val-d'or,48.1002,-77.7828,15.05,31,20,4.63,CA,1685061054
26,kingston,17.997,-76.7936,29.53,76,20,2.57,JM,1685061054
27,grand falls-windsor,48.9332,-55.6649,2.5,92,100,1.34,CA,1685061054
28,yellowknife,62.456,-114.3525,14.29,51,40,4.12,CA,1685061048
29,tortoli,39.9256,9.6572,17.9,82,0,4.63,IT,1685061054
30,brisas de zicatela,15.8369,-97.0419,30.29,66,75,2.57,MX,1685060898
31,pariaman,-0.619,100.12,25.03,81,100,1.21,ID,1685061054
32,erie,42.7667,-78.6664,13.93,44,0,1.94,US,1685060966
33,zavrc,46.3917,16.0497,15.3,94,100,0.82,SI,1685061055
34,gemena,3.25,19.7667,22.11,92,100,1.18,CD,1685061055
35,saint-pierre,-21.3393,55.4781,20.87,78,100,3.6,RE,1685061055
36,waukee,41.6117,-93.8852,23.79,68,1,5.08,US,1685061055
37,spring creek,40.7266,-115.5859,14.67,59,100,2.03,US,1685061055
38,udachny,66.4167,112.4,1.92,55,92,4.83,RU,1685061055
39,ponta delgada,37.7333,-25.6667,16.4,77,20,4.12,PT,1685061055
40,khasab,26.1799,56.2477,31.17,44,0,2.69,OM,1685061055
41,ekibastuz,51.6667,75.3667,14.06,80,96,4.19,KZ,1685061055
42,whitehorse,60.7161,-135.0538,10.43,76,100,8.23,CA,1685060814
43,crane,31.3974,-102.3501,27.31,51,98,7.28,US,1685061055
44,danilov,58.1908,40.1717,11.01,97,100,2.19,RU,1685061056
45,kununurra,-15.7667,128.7333,22.99,49,4,2.06,AU,1685060945
46,polyarnyy,69.1989,33.4478,7.72,57,71,2.69,RU,1685061056
47,papatowai,-46.5619,169.4708,15.38,61,100,5.4,NZ,1685060870
48,sao sebastiao,-23.76,-45.4097,20.39,91,6,2.71,BR,1685061056
49,edinburgh of the seven seas,-37.0676,-12.3116,16.53,90,49,12.46,SH,1685061056
50,puerto ayora,-0.7393,-90.3518,25.86,90,55,3.58,EC,1685060870
51,margaret river,-33.95,115.0667,8.49,78,0,3.02,AU,1685060871
52,hiratacho,35.4333,132.8167,20.98,56,75,2.06,JP,1685061056
53,mount pearl,47.5166,-52.7813,3.8,93,100,4.63,CA,1685061056
54,isafjordur,66.0755,-23.124,4.59,76,100,2.89,IS,1685061056
55,thompson,55.7435,-97.8558,13.09,100,100,2.57,CA,1685061056
56,georgetown,5.4112,100.3354,28.96,78,20,2.06,MY,1685060871
57,albany,42.6001,-73.9662,13.84,64,2,1.99,US,1685061001
58,malango,-2.9627,119.9001,23.67,86,63,0.73,ID,1685061057
59,kristiansund,63.1115,7.732,6.03,81,75,8.75,NO,1685061057
60,happy valley-goose bay,53.3168,-60.3315,7.17,65,20,3.09,CA,1685061057
61,port saint john's,-31.6229,29.5448,19.36,67,90,4.74,ZA,1685061057
62,lodwar,3.1191,35.5973,27.87,52,100,5.14,KE,1685061057
63,tazovsky,67.4667,78.7,4.98,80,100,5.66,RU,1685061057
64,severodvinsk,64.5635,39.8302,7.64,98,94,2.96,RU,1685061057
65,kapuskasing,49.4169,-82.4331,19.0,24,100,1.54,CA,1685060911
66,invercargill,-46.4,168.35,12.36,91,100,4.46,NZ,1685061057
67,port-aux-francais,-49.35,70.2167,5.32,99,98,7.92,TF,1685061057
68,tanjungbalai,2.9667,99.8,25.02,91,98,1.1,ID,1685060872
69,nagqu,31.5,92.0,4.52,58,100,6.27,CN,1685061058
70,nar'yan-mar,67.6713,53.087,15.39,84,95,5.76,RU,1685061058
71,utrik,11.2278,169.8474,27.82,79,100,9.08,MH,1685061058
72,puerto aysen,-45.4,-72.7,2.14,98,100,1.78,CL,1685061058
73,port elizabeth,-33.918,25.5701,13.16,75,0,10.8,ZA,1685061058
74,conde,-7.2597,-34.9075,24.7,94,20,2.57,BR,1685061058
75,susuman,62.7833,148.1667,7.12,42,28,2.67,RU,1685060879
76,olonkinbyen,70.9221,-8.7187,-0.67,73,41,9.87,SJ,1685060889
77,fredericton,45.9454,-66.6656,7.47,92,100,3.6,CA,1685061058
78,sarkand,45.41,79.9186,14.86,47,5,1.52,KZ,1685061058
79,ola,59.5833,151.2833,11.19,88,93,3.1,RU,1685061058
80,constitucion,-35.3333,-72.4167,11.2,81,4,2.8,CL,1685061057
81,swakopmund,-22.6833,14.5333,12.77,88,0,0.89,NA,1685061059
82,quellon,-43.1167,-73.6167,4.93,75,72,2.16,CL,1685060919
83,remire-montjoly,4.9167,-52.2667,24.02,100,75,0.0,GF,1685060901
84,gucheng chengguanzhen,32.266,111.6348,21.69,81,100,0.85,CN,1685061059
85,khandyga,62.6667,135.6,11.53,46,66,1.34,RU,1685061059
86,la spezia,44.1105,9.8434,20.23,68,1,0.89,IT,1685061059
87,hermanus,-34.4187,19.2345,9.89,68,21,5.28,ZA,1685061059
88,krasnik,50.9236,22.2271,13.93,96,16,2.99,PL,1685061059
89,puerto natales,-51.7236,-72.4875,0.04,91,94,1.72,CL,1685061059
90,st. john's,47.5649,-52.7093,4.26,93,100,4.63,CA,1685061011
91,cidreira,-30.1811,-50.2056,20.71,91,0,6.12,BR,1685061059
92,port mathurin,-19.6833,63.4167,24.98,78,36,6.36,MU,1685061059
93,tinghir,31.5157,-5.5343,20.58,20,0,1.4,MA,1685061059
94,riachao das neves,-11.7461,-44.91,25.13,50,62,4.32,BR,1685061060
95,al jawf,29.5,38.75,21.57,33,6,4.22,SA,1685061060
96,bukittinggi,-0.3091,100.3706,19.95,91,100,0.39,ID,1685061060
97,college,64.8569,-147.8028,23.18,27,75,3.6,US,1685060824
98,port lincoln,-34.7333,135.8667,13.72,66,100,5.91,AU,1685061060
99,maun,-19.9833,23.4167,12.98,67,23,0.51,BW,1685060964
100,el calafate,-50.3408,-72.2768,-0.07,81,72,3.17,AR,1685061060
101,lihue,21.9789,-159.3672,27.58,72,40,6.17,US,1685061043
102,aasiaat,68.7098,-52.8699,-3.92,93,45,3.85,GL,1685061060
103,labuan,5.2767,115.2417,27.2,89,20,0.0,MY,1685061060
104,seeb,23.6703,58.1891,37.05,32,0,6.17,OM,1685061060
105,nuuk,64.1835,-51.7216,0.34,80,75,4.12,GL,1685061060
106,punta arenas,-53.15,-70.9167,1.73,72,92,4.39,CL,1685061060
107,kanniyakumari,8.0833,77.5667,28.07,80,0,7.33,IN,1685061060
108,banes,20.9625,-75.7186,25.23,80,39,2.39,CU,1685061061
109,saipan,15.1355,145.701,28.69,100,100,5.36,MP,1685061061
110,pacific grove,36.6177,-121.9166,15.57,79,75,5.14,US,1685061061
111,springs,-26.25,28.4,14.81,86,20,4.96,ZA,1685061061
112,hamilton,39.1834,-84.5333,19.69,35,0,7.2,US,1685060974
113,gaigeturi,33.4644,126.3183,20.03,77,75,2.06,KR,1685061061
114,vadso,70.0744,29.7487,7.09,61,75,3.6,NO,1685060894
115,nova sintra,14.8667,-24.7167,20.88,85,46,7.91,CV,1685061061
116,visby,57.6409,18.296,8.79,93,13,4.12,SE,1685060956
117,new norfolk,-42.7826,147.0587,11.07,83,92,0.89,AU,1685060873
118,pundong,-7.9522,110.3486,27.04,72,10,4.27,ID,1685061062
119,balotra,25.8333,72.2333,28.06,76,47,10.49,IN,1685061062
120,iqaluit,63.7506,-68.5145,1.85,80,100,5.14,CA,1685060972
121,blackmans bay,-43.0167,147.3167,10.41,74,100,4.45,AU,1685061063
122,guerrero negro,27.9769,-114.0611,17.45,68,44,9.03,MX,1685061063
123,baiyin,36.5583,104.2081,14.52,52,100,3.52,CN,1685061064
124,la ronge,55.1001,-105.2842,18.14,52,100,1.54,CA,1685060909
125,al bawiti,28.3492,28.8659,25.67,36,100,6.0,EG,1685061064
126,poronaysk,49.2167,143.1167,12.51,69,100,2.77,RU,1685061064
127,shuangjiang,26.1547,109.7138,22.89,90,100,2.15,CN,1685061064
128,itaituba,-4.2761,-55.9836,28.09,89,20,0.0,BR,1685061065
129,uturoa,-16.7333,-151.4333,27.57,75,33,4.79,PF,1685060881
130,acapulco de juarez,16.8634,-99.8901,29.9,70,40,4.12,MX,1685060896
131,wailua homesteads,22.0669,-159.378,27.24,73,40,6.17,US,1685061066
132,nuku'alofa,-21.1333,-175.2,23.19,78,100,3.6,TO,1685061066
133,hawaiian paradise park,19.5933,-154.9731,26.73,69,40,5.66,US,1685061066
134,ajaccio,42.0,8.9167,15.03,82,0,3.09,FR,1685060872
135,stanley,54.868,-1.6985,11.51,91,0,1.03,GB,1685061067
136,road town,18.4167,-64.6167,28.02,74,40,3.6,VG,1685060955
137,pangody,65.85,74.4859,9.38,59,100,5.66,RU,1685061072
138,avarua,-21.2078,-159.775,24.03,94,55,2.06,CK,1685061073
139,tiksi,71.6872,128.8694,-0.06,81,100,3.79,RU,1685061073
140,miri,4.4148,114.0089,27.08,78,20,3.6,MY,1685061073
141,kuanda,56.3161,116.0806,5.58,92,100,1.85,RU,1685061073
142,sergeyevka,53.88,67.4158,12.74,86,0,4.19,KZ,1685061074
143,lorengau,-2.0226,147.2712,28.97,69,17,1.03,PG,1685061074
144,saldanha,-33.0117,17.9442,7.03,63,21,2.96,ZA,1685061074
145,copala,16.65,-98.9833,27.94,72,16,2.55,MX,1685061075
146,sooke,48.3746,-123.7276,25.27,50,18,2.57,CA,1685061076
147,chibougamau,49.9168,-74.3659,11.79,40,0,3.09,CA,1685060904
148,keflavik,64.0049,-22.5624,6.24,81,75,4.63,IS,1685061076
149,oyama,36.3,139.8,21.99,43,100,4.01,JP,1685061077
150,livingston,55.9029,-3.5226,10.62,84,0,2.06,GB,1685061077
151,fortaleza,-3.7227,-38.5247,26.07,94,40,3.09,BR,1685061078
152,kindu,-2.95,25.95,21.05,98,63,0.84,CD,1685061078
153,mana,5.6592,-53.7767,25.39,93,100,3.62,GF,1685061078
154,tauranga,-37.6861,176.1667,16.64,82,0,0.45,NZ,1685061000
155,laguna,38.421,-121.4238,26.29,54,0,6.17,US,1685061079
156,walvis bay,-22.9575,14.5053,12.83,80,0,6.99,NA,1685061079
157,vorgashor,67.5833,63.95,14.89,70,45,5.85,RU,1685061080
158,weno,7.4515,151.8468,28.41,75,98,3.76,FM,1685060782
159,suva,-18.1416,178.4415,23.71,83,75,3.09,FJ,1685061080
160,siasi,5.5462,120.8145,28.26,77,76,3.62,PH,1685061081
161,vera cruz,-12.6333,-41.0333,21.18,79,100,2.22,BR,1685061081
162,elliot lake,46.3834,-82.6331,8.08,63,86,1.56,CA,1685061081
163,mlyniv,50.509,25.6168,13.29,90,25,2.08,UA,1685061082
164,yajiwa,11.3839,12.7236,30.86,47,97,2.93,NG,1685061082
165,kas,36.2018,29.6377,18.93,78,0,1.72,TR,1685061083
166,aguililla,18.7333,-102.7333,28.58,51,91,3.08,MX,1685061083
167,papao,-17.75,-149.55,29.82,70,5,1.14,PF,1685061084
168,jalapa,19.5333,-96.9167,18.63,99,100,0.96,MX,1685061084
169,lebu,-37.6167,-73.65,12.55,88,94,8.52,CL,1685061084
170,aioun,16.6614,-9.6149,30.72,35,100,3.9,MR,1685061085
171,solleftea,63.1667,17.2667,5.67,82,100,2.0,SE,1685061085
172,tianpeng,30.9866,103.9393,21.46,70,100,1.18,CN,1685061085
173,gizo,-8.103,156.8419,26.35,88,100,6.97,SB,1685061085
174,inhambane,-23.865,35.3833,20.75,76,26,4.46,MZ,1685061086
175,emerald,-23.5333,148.1667,21.3,47,0,2.13,AU,1685061086
176,saint-francois,46.4154,3.9054,9.69,93,0,1.03,FR,1685061086
177,ulanhot,46.0833,122.0833,18.69,31,5,8.52,CN,1685061086
178,gaspe,48.8334,-64.4819,6.95,100,100,1.03,CA,1685061086
179,severo-yeniseyskiy,60.3725,93.0408,2.85,62,12,3.51,RU,1685061087
180,plastun,44.7561,136.2939,16.96,48,100,3.44,RU,1685061087
181,wulingyuan,29.3494,110.5441,21.08,99,100,0.99,CN,1685061088
182,wafangdian,39.6183,122.0081,22.25,54,91,3.38,CN,1685061088
183,west island,-12.1568,96.8225,26.99,89,40,7.2,CC,1685061088
184,ar ruways,24.1103,52.7306,29.41,51,53,0.7,AE,1685061088
185,dunedin,-45.8742,170.5036,17.11,47,100,2.24,NZ,1685061088
186,littlefield,33.9173,-102.3249,22.76,59,0,7.52,US,1685061088
187,cileungsir,-6.3947,106.9592,29.11,83,20,0.0,ID,1685061089
188,castanos,26.7833,-101.4167,31.77,44,75,3.6,MX,1685061089
189,mossel bay,-34.1831,22.146,9.96,77,4,9.37,ZA,1685061090
190,alice springs,-23.7,133.8833,11.75,58,40,7.72,AU,1685061090
191,arraial do cabo,-22.9661,-42.0278,19.98,94,20,2.06,BR,1685061090
192,sinabang,2.4803,96.3801,27.06,81,99,0.87,ID,1685061091
193,puerto deseado,-47.7503,-65.8938,6.2,36,46,8.58,AR,1685061091
194,nemuro,43.3236,145.575,10.65,81,3,4.37,JP,1685060878
195,acarau,-2.8856,-40.12,25.78,84,5,4.54,BR,1685061091
196,xudat,41.631,48.681,19.11,76,100,0.45,AZ,1685061091
197,fada,9.5667,8.3,21.83,85,27,1.04,NG,1685061092
198,tindouf,27.6711,-8.1474,21.25,46,0,8.23,DZ,1685061092
199,glace bay,46.1969,-59.957,5.25,96,100,5.14,CA,1685060806
200,repatriacion,-25.5333,-55.95,20.52,75,0,3.87,PY,1685061092
201,dalbandin,28.8947,64.4101,25.66,15,47,3.91,PK,1685061093
202,mazamari,-11.3258,-74.5308,20.98,96,58,0.96,PE,1685061093
203,mirny,62.5353,113.9611,5.13,65,99,8.05,RU,1685061093
204,tsiombe,-25.3,45.4833,19.39,73,3,4.47,MG,1685060908
205,sur,22.5667,59.5289,32.4,53,100,6.05,OM,1685061094
206,tranas,58.0372,14.9782,6.33,72,6,4.31,SE,1685061094
207,didwana,27.4,74.5667,26.69,61,0,6.67,IN,1685061094
208,newman,37.3138,-121.0208,26.83,43,0,4.02,US,1685061094
209,aykhal,66.0,111.5,0.4,73,100,4.8,RU,1685061095
210,ilulissat,69.2167,-51.1,3.01,52,0,4.12,GL,1685061095
211,smithers,54.7804,-127.1743,26.18,18,20,0.0,CA,1685061095
212,east london,-33.0153,27.9116,16.14,63,100,10.32,ZA,1685061095
213,galesong,-5.3166,119.3661,28.01,75,100,3.2,ID,1685061095
214,ust-nera,64.5667,143.2,5.57,54,59,1.5,RU,1685061096
215,kourou,5.1552,-52.6478,24.03,93,100,3.04,GF,1685061096
216,lagoa,39.05,-27.9833,16.74,76,100,5.81,PT,1685061096
217,moroni,-11.7022,43.2551,24.05,76,2,4.58,KM,1685061096
218,yeed,4.55,43.0333,25.16,64,100,6.74,SO,1685061097
219,chul'man,56.8479,124.9104,9.18,47,100,6.36,RU,1685061097
220,longyearbyen,78.2186,15.6401,-0.09,86,100,9.26,SJ,1685060878
221,peace river,56.2501,-117.286,17.17,63,75,4.12,CA,1685061098
222,alofi,-19.0595,-169.9187,22.94,88,100,4.12,NU,1685061098
223,tolanaro,-25.0319,46.9987,19.04,88,75,2.57,MG,1685061098
224,akobo,7.4344,3.9497,23.45,95,100,1.15,NG,1685061098
225,klyuchi,52.2667,79.1667,12.54,43,35,5.93,RU,1685061098
226,al qusayr,34.5091,36.5798,15.98,62,0,0.12,SY,1685061099
227,zaoyang,32.1272,112.7542,22.16,81,100,1.26,CN,1685061099
228,prince rupert,54.3161,-130.3201,18.05,65,0,3.09,CA,1685061099
229,san antonio de pale,-1.4014,5.6325,26.18,85,100,7.23,GQ,1685061099
230,san patricio,28.017,-97.5169,29.74,63,73,4.71,US,1685060887
231,fang,19.9169,99.2145,26.79,64,73,0.84,TH,1685061100
232,nacimiento,-37.5,-72.6667,10.85,88,99,4.81,CL,1685061100
233,tralee,52.2704,-9.7026,11.22,95,19,1.75,IE,1685061101
234,roswell,34.0232,-84.3616,24.51,47,100,2.06,US,1685060943
235,porto murtinho,-21.6989,-57.8825,25.81,52,3,3.64,BR,1685061101
236,jamestown,42.097,-79.2353,12.8,50,0,4.12,US,1685061040
237,priozersk,61.0393,30.1291,9.49,93,54,3.57,RU,1685061102
238,carnot,4.9409,15.8665,21.8,96,100,0.77,CF,1685061102
239,porbandar,21.6422,69.6093,27.9,85,31,8.44,IN,1685061102
240,antonio enes,-16.2325,39.9086,21.95,69,0,2.85,MZ,1685061103
241,chonchi,-42.6128,-73.8092,4.24,88,100,1.08,CL,1685061103
242,miles city,46.4083,-105.8406,24.54,60,0,3.09,US,1685061086
243,mejit,10.2753,170.8646,27.76,79,100,9.01,MH,1685060926
244,queenstown,-31.8976,26.8753,7.88,67,69,10.78,ZA,1685061103
245,carnarvon,-24.8667,113.6333,20.33,52,100,8.97,AU,1685061103
246,oeiras do para,-2.0031,-49.8544,24.17,94,91,0.86,BR,1685061104
247,santa cruz del sur,20.7147,-77.9956,26.51,78,6,4.91,CU,1685061104
248,ngorongoro,-3.2397,35.4875,10.05,95,90,2.72,TZ,1685061104
249,sitka,57.0531,-135.33,11.94,94,100,1.54,US,1685060871
250,kamin-kashyrskyi,51.6241,24.9586,12.44,92,21,1.91,UA,1685061104
251,bontang,0.1333,117.5,26.15,85,99,3.19,ID,1685061104
252,howrah,22.5892,88.3103,25.0,88,75,1.54,IN,1685061105
253,waingapu,-9.6567,120.2641,27.05,68,38,5.81,ID,1685061105
254,jayapura,-2.5333,140.7,30.66,72,58,1.91,ID,1685061105
255,portland,45.5234,-122.6762,28.97,36,20,5.66,US,1685061105
256,minas de marcona,-15.2119,-75.1103,14.82,86,43,4.96,PE,1685061105
257,labrador city,52.9463,-66.9114,7.95,42,0,2.57,CA,1685061105
258,qusmuryn,52.4503,64.6311,17.2,58,7,2.93,KZ,1685061105
259,coello,4.2891,-74.8982,27.1,83,100,0.64,CO,1685061105
260,san luis de la loma,17.2706,-100.8939,28.68,66,19,2.42,MX,1685061106
261,basoko,1.2391,23.616,21.89,91,100,1.35,CD,1685061106
262,port hedland,-20.3167,118.5667,22.03,35,37,8.75,AU,1685061106
263,khanty-mansiysk,61.0042,69.0019,10.06,57,0,2.0,RU,1685061106
264,de queen,34.0379,-94.3413,26.88,61,0,0.0,US,1685061106
265,salinopolis,-0.6136,-47.3561,26.21,86,7,5.08,BR,1685061106
266,filey,54.21,-0.2892,12.24,85,88,2.68,GB,1685061106
267,mangrol,21.1167,70.1167,28.09,82,9,7.7,IN,1685061107
268,khash,28.2211,61.2158,21.88,20,5,1.52,IR,1685061107
269,tocopilla,-22.092,-70.1979,18.55,75,82,3.96,CL,1685061107
270,blythe,33.6103,-114.5964,36.25,9,0,4.63,US,1685061030
271,sitangkai,4.6628,119.3928,28.52,71,91,1.83,PH,1685061107
272,dambulla,7.86,80.6517,24.96,84,5,3.95,LK,1685061107
273,iwanai,42.9744,140.5089,21.4,35,100,2.45,JP,1685061107
274,ashkelon,31.6693,34.5715,19.34,74,77,1.5,IL,1685061107
275,natal,-5.795,-35.2094,25.36,94,40,2.06,BR,1685060846
276,tommot,58.9564,126.2925,12.0,38,24,4.62,RU,1685061108
277,nova granada,-20.5339,-49.3142,24.14,63,0,3.1,BR,1685061108
278,enewetak,11.3474,162.3373,28.06,77,97,7.36,MH,1685060881
279,constantia,44.1833,28.65,15.39,91,79,2.57,RO,1685061108
280,berdigestyakh,62.0989,126.6992,9.12,36,0,3.37,RU,1685061108
281,sogod,10.3847,124.9814,29.48,84,99,1.2,PH,1685061108
282,curuzu cuatia,-29.7917,-58.0546,19.25,82,8,5.15,AR,1685061058
283,altsasu,42.9,-2.1652,10.79,91,73,1.07,ES,1685060816
284,yelizovo,53.1873,158.3805,13.08,54,75,3.0,RU,1685061108
285,seminole,28.7086,-81.2081,24.65,79,0,4.12,US,1685061109
286,makarska,43.2969,17.0178,18.24,77,18,4.78,HR,1685061109
287,corner brook,48.9667,-57.9484,3.09,96,100,5.26,CA,1685060849
288,zaozersk,69.4005,32.4476,7.46,49,56,5.24,RU,1685061109
289,qamdo,31.1667,97.2333,7.54,43,0,3.48,CN,1685061109
290,codrington,-38.2667,141.9667,11.67,72,99,6.6,AU,1685060913
291,paracuru,-3.41,-39.0306,25.06,83,7,4.59,BR,1685061109
292,san clemente del tuyu,-36.3569,-56.7235,18.88,96,100,3.56,AR,1685061109
293,kendal,54.3268,-2.7476,9.77,93,9,0.8,GB,1685061109
294,sarmiento,-45.5882,-69.07,4.35,45,0,11.57,AR,1685061109
295,trevelin,-43.0858,-71.4639,-0.84,93,20,2.23,AR,1685061109
296,port alfred,-33.5906,26.891,12.32,89,84,2.68,ZA,1685060875
297,el quebrachal,-25.2833,-64.0667,21.04,93,15,2.71,AR,1685061110
298,anadyr,64.75,177.4833,0.28,100,75,4.0,RU,1685060988
299,murakami,38.2333,139.4833,20.94,59,100,1.4,JP,1685061110
300,ambam,2.3833,11.2833,20.73,99,100,1.02,CM,1685061110
301,okha,53.5739,142.9478,4.52,83,100,6.24,RU,1685060875
302,mhamid,29.82,-5.72,22.84,26,5,6.58,MA,1685061110
303,oranjemund,-28.55,16.4333,11.83,81,100,2.11,NA,1685061110
304,pisco,-13.7,-76.2167,21.03,83,99,5.14,PE,1685061110
305,kralendijk,12.15,-68.2667,27.99,83,75,3.6,BQ,1685061110
306,klaksvik,62.2266,-6.589,8.51,85,38,9.33,FO,1685061110
307,taltal,-25.4,-70.4833,16.68,79,100,1.3,CL,1685061110
308,saudarkrokur,65.7461,-19.6394,5.43,75,100,4.3,IS,1685061110
309,addiet canna,11.2667,37.4833,18.12,61,63,1.36,ET,1685061111
310,kismayo,-0.3582,42.5454,26.33,77,66,5.47,SO,1685061111
311,siwa oasis,29.2041,25.5195,27.28,32,100,7.35,EG,1685061111
312,cockburn town,21.4612,-71.1419,27.54,79,0,3.95,TC,1685061111
313,faya-largeau,17.9257,19.1043,33.78,14,0,3.95,TD,1685061111
314,kesan,40.8558,26.6303,13.93,90,7,2.04,TR,1685061111
315,fort bragg,35.139,-79.006,20.75,69,75,6.17,US,1685061111
316,pandan,14.0453,124.1694,29.32,75,79,4.33,PH,1685061111
317,mazowe,-17.504,30.9739,14.76,85,0,0.78,ZW,1685061112
318,monts,47.2772,0.6247,12.77,79,0,5.23,FR,1685061112
319,kitale,1.0157,35.0062,12.94,94,95,0.68,KE,1685061112
320,murghob,38.1702,73.9667,-0.15,60,100,1.69,TJ,1685061112
321,rosetta,31.4044,30.4164,19.47,79,79,6.11,EG,1685061112
322,dabou,5.3256,-4.3769,26.03,86,100,0.23,CI,1685061112
323,syktyvkar,61.6764,50.8099,14.95,72,0,2.0,RU,1685061112
324,santana,-0.0583,-51.1817,26.1,100,40,2.57,BR,1685061112
325,petrolina de goias,-16.095,-49.3381,21.61,63,18,2.64,BR,1685061113
326,kalix,65.853,23.1565,3.84,66,5,4.35,SE,1685061113
327,lautoka,-17.6167,177.4667,26.92,61,20,5.14,FJ,1685061113
328,gatesville,31.4352,-97.7439,28.06,60,75,2.06,US,1685061113
329,bodaybo,57.8506,114.1933,8.72,76,100,0.96,RU,1685061113
330,priargunsk,50.3691,119.1012,11.79,29,0,8.07,RU,1685061113
331,timmins,48.4669,-81.3331,16.9,27,75,2.06,CA,1685060996
332,santa terezinha,-29.9002,-50.0904,20.23,88,0,4.45,BR,1685061113
333,shouguang,36.88,118.7375,25.52,44,100,3.39,CN,1685061113
334,makushino,55.2103,67.2442,11.53,85,2,4.08,RU,1685061113
335,savonlinna,61.8699,28.88,5.03,87,0,2.06,FI,1685061113
336,san antonio,29.4241,-98.4936,29.15,58,40,4.12,US,1685060834
337,springbok,-29.6643,17.8865,4.39,94,55,0.78,ZA,1685061114
338,gunjur,13.2019,-16.7339,26.04,83,0,2.57,GM,1685061114
339,badger,64.8,-147.5333,23.14,25,0,3.6,US,1685060877
340,isiolo,0.3546,37.5822,20.26,77,86,3.93,KE,1685061114
341,dul'durga,50.6761,113.5931,8.92,35,85,9.45,RU,1685061114
342,makubetsu,45.3714,141.8211,18.84,37,0,10.29,JP,1685061114
343,bankim,6.083,11.4905,20.28,98,100,0.44,CM,1685061114
344,jimo,36.3897,120.4622,18.88,88,75,3.0,CN,1685061114
345,henderson,36.0397,-114.9819,34.25,11,0,11.32,US,1685060885
346,puerto colombia,10.9878,-74.9547,28.05,85,92,2.66,CO,1685061114
347,margate,51.3813,1.3862,10.94,76,15,3.58,GB,1685060939
348,bereeda,11.8704,51.0579,28.83,77,35,3.91,SO,1685061115
349,arar,30.9753,41.0381,26.01,19,0,10.29,SA,1685061115
350,acajutla,13.5928,-89.8275,28.25,81,87,1.98,SV,1685061115
351,tomatlan,19.9333,-105.25,30.75,37,100,4.34,MX,1685061115
352,kodiak,57.79,-152.4072,8.73,71,100,3.6,US,1685061115
353,coquimbo,-29.9533,-71.3436,14.85,88,0,1.54,CL,1685060841
354,ilhabela,-23.7781,-45.3581,21.07,88,1,3.11,BR,1685060881
355,scottburgh,-30.2867,30.7532,19.39,71,0,4.38,ZA,1685061115
356,jiuquan,39.7432,98.5174,17.54,16,100,1.75,CN,1685061115
357,tual,-5.6667,132.75,27.27,69,78,7.83,ID,1685061115
358,palmer,42.1584,-72.3287,15.78,54,20,3.09,US,1685060903
359,vernon,50.2581,-119.2691,24.4,41,100,1.54,CA,1685061116
360,hazard,37.2495,-83.1932,22.83,51,22,3.68,US,1685061116
361,la passe,45.5549,-0.8967,15.13,88,0,5.08,FR,1685061116
362,naryn,41.4287,75.9911,7.68,63,100,0.95,KG,1685061116
363,nizao,18.25,-70.2,28.53,81,0,1.52,DO,1685061116
364,cabo san lucas,22.8909,-109.9124,30.9,32,75,4.12,MX,1685061010
365,lazaro cardenas,17.9583,-102.2,28.51,71,82,4.0,MX,1685061116
366,pechora,65.1472,57.2244,16.76,83,89,4.16,RU,1685061116
367,naze,28.3667,129.4833,23.51,69,100,4.76,JP,1685061116
368,flin flon,54.7682,-101.865,13.79,96,100,2.26,CA,1685061116
369,mccook,40.2019,-100.6257,17.25,84,100,8.75,US,1685061117
370,guozhen,34.3659,107.359,17.56,70,100,1.11,CN,1685061117
371,bengkulu,-3.8004,102.2655,26.78,78,37,1.52,ID,1685061117
372,touros,-5.1989,-35.4608,25.7,87,95,5.68,BR,1685060906
373,jatibonico,21.9419,-79.17,24.04,83,0,2.97,CU,1685061117
374,uliastay,47.7417,96.8444,6.37,47,100,1.55,MN,1685061117
375,patong,7.8961,98.2966,30.57,99,99,6.07,TH,1685061117
376,bezhetsk,57.7851,36.6965,10.43,89,6,2.77,RU,1685061117
377,colonia,50.9333,6.95,11.64,81,0,3.09,DE,1685061012
378,sisimiut,66.9395,-53.6735,-0.49,85,93,5.66,GL,1685061077
379,hilo,19.7297,-155.09,26.85,76,40,5.66,US,1685060933
380,kutum,14.2,24.6667,27.55,22,8,2.04,SD,1685061118
381,madison,34.7334,-86.5667,25.64,54,0,2.57,US,1685061108
382,jatai,-17.8814,-51.7144,18.66,64,7,2.66,BR,1685061064
383,kayangel,8.0823,134.7173,29.11,78,100,8.73,PW,1685060914
384,arkhangel'sk,64.5401,40.5433,8.38,90,7,2.7,RU,1685061118
385,kailua-kona,19.6406,-155.9956,26.98,86,100,4.63,US,1685061118
386,vigan,17.5747,120.3869,29.96,81,32,0.64,PH,1685061118
387,broome,42.2506,-75.833,12.61,62,0,0.89,US,1685061118
388,sandnessjoen,66.0217,12.6316,3.69,90,100,2.24,NO,1685061118
389,natitingou,10.3042,1.3796,24.51,82,100,1.53,BJ,1685061118
390,gaalkacyo,6.7697,47.4308,25.4,75,53,5.19,SO,1685061118
391,comandante fontana,-25.3345,-59.6821,23.42,61,67,3.84,AR,1685061119
392,shimoda,34.6667,138.95,21.72,61,100,2.73,JP,1685061119
393,tura,25.5198,90.2201,20.88,91,100,1.32,IN,1685060912
394,scornicesti,44.5667,24.55,14.06,88,100,1.06,RO,1685061119
395,dhidhdhoo,6.8833,73.1,28.91,74,17,4.61,MV,1685061119
396,lascano,-33.6667,-54.2,18.24,85,42,3.6,UY,1685061119
397,lahad datu,5.0268,118.327,27.79,79,100,1.22,MY,1685061119
398,tofol,5.3248,163.0078,28.34,75,40,4.3,FM,1685061119
399,zhezqazghan,47.7833,67.7667,17.56,36,0,3.06,KZ,1685061119
400,cefalu,38.0386,14.0229,20.3,75,43,1.34,IT,1685061119
401,kattivakkam,13.2167,80.3167,30.05,75,49,5.55,IN,1685061120
402,cootamundra,-34.65,148.0333,9.97,78,56,6.65,AU,1685061120
403,mancio lima,-7.6142,-72.8958,26.04,94,40,0.0,BR,1685061120
404,uglich,57.5275,38.3317,10.66,94,6,2.01,RU,1685061120
405,sitia,35.2,26.0986,19.43,78,34,2.35,GR,1685061120
406,bandarbeyla,9.4942,50.8122,27.93,78,14,7.26,SO,1685061120
407,villa yapacani,-17.4,-63.8333,22.39,97,42,2.37,BO,1685061120
408,hasaki,35.7333,140.8333,24.01,61,66,5.13,JP,1685060905
409,zhalantun,48.0,122.7167,15.52,40,4,9.55,CN,1685060946
410,kuta,-8.7233,115.1723,26.97,83,20,4.63,ID,1685061121
411,freetown,8.484,-13.2299,23.84,94,75,3.6,SL,1685061121
412,amahai,-3.3333,128.9167,27.85,70,87,5.53,ID,1685061121
413,thunder bay,48.4001,-89.3168,11.99,43,75,4.63,CA,1685061072
414,oodweyne,9.4092,45.064,21.86,81,100,2.0,SO,1685061121
415,labytnangi,66.6572,66.4183,15.9,66,92,3.9,RU,1685061121
416,taft,31.7471,54.2088,24.97,24,40,1.03,IR,1685061121
417,praia da vitoria,38.7333,-27.0667,17.14,88,40,5.2,PT,1685061121
418,toliara,-23.35,43.6667,20.3,66,0,4.87,MG,1685060887
419,charters towers,-20.1,146.2667,23.39,46,63,1.85,AU,1685061122
420,six-fours-les-plages,43.0938,5.84,15.73,90,19,1.92,FR,1685061122
421,taroa,8.7058,171.2275,27.96,79,84,8.59,MH,1685061122
422,brookings,44.3114,-96.7984,27.19,39,20,7.72,US,1685061122
423,san andres,12.5847,-81.7006,28.01,74,75,2.06,CO,1685060971
424,antsiranana,-12.2787,49.2917,22.0,92,14,3.08,MG,1685061122
425,lompoc,34.6391,-120.4579,20.56,72,27,5.36,US,1685061123
426,beau vallon,-20.4189,57.6953,23.94,78,100,8.19,MU,1685061102
427,pahrump,36.2083,-115.9839,30.03,8,0,3.58,US,1685061123
428,puerto san jose,13.9256,-90.8244,28.55,77,76,3.67,GT,1685061123
429,brejo,-3.6844,-42.7503,23.38,88,97,0.7,BR,1685061124
430,yung shue wan,22.2333,114.1167,29.63,89,32,0.89,HK,1685061124
431,kerikeri,-35.2268,173.9474,16.4,66,40,2.27,NZ,1685061124
432,prado,-17.3411,-39.2208,22.34,90,26,3.38,BR,1685061124
433,kachug,53.9606,105.8817,5.21,73,81,2.81,RU,1685061124
434,guaruja,-23.9931,-46.2564,23.27,26,1,0.45,BR,1685061125
435,mkushi,-13.6202,29.3939,13.09,63,4,1.82,ZM,1685061125
436,yerofey pavlovich,53.9667,121.9667,7.23,90,100,2.82,RU,1685061125
437,vila franca do campo,37.7167,-25.4333,16.23,87,32,2.9,PT,1685061130
438,ulan bator,47.9077,106.8832,3.07,48,40,0.0,MN,1685060878
439,ambovombe,-25.1667,46.0833,18.18,81,0,4.6,MG,1685061131
440,parasia,22.2,78.7667,26.77,41,65,4.35,IN,1685061131
441,vilyuysk,63.7553,121.6247,7.94,44,14,4.5,RU,1685061131
442,mbandaka,0.0487,18.2603,21.03,98,100,0.79,CD,1685061131
443,gamba,-2.65,10.0,24.57,94,84,2.47,GA,1685061131
444,yanbu,24.0891,38.0637,28.02,69,0,1.54,SA,1685061132
445,duekoue,6.7472,-7.3496,23.1,99,100,0.25,CI,1685061132
446,pirai do sul,-24.5261,-49.9486,13.62,85,1,1.12,BR,1685060881
447,saint-philippe,-21.3585,55.7679,20.77,84,100,5.44,RE,1685061132
448,mosjoen,65.836,13.1908,3.7,87,75,2.24,NO,1685061132
449,gulf shores,30.246,-87.7008,27.03,48,0,3.09,US,1685061133
450,kaeng khro,16.1086,102.2581,29.98,61,57,2.82,TH,1685061133
451,shingu,33.7333,135.9833,20.25,72,100,2.08,JP,1685061133
452,abeche,13.8292,20.8324,31.54,30,25,0.94,TD,1685061133
453,paita,-5.0892,-81.1144,24.81,76,5,8.54,PE,1685061133
454,pemangkat,1.1667,108.9667,28.15,77,29,2.07,ID,1685061134
455,miguel ahumada,30.6167,-106.5167,32.5,9,99,4.01,MX,1685061134
456,marka,1.7159,44.7717,25.8,72,10,5.2,SO,1685061134
457,port moresby,-9.4431,147.1797,26.68,83,75,4.12,PG,1685061134
458,baruun-urt,46.6806,113.2792,8.89,42,7,1.81,MN,1685061134
459,kirakira,-10.4544,161.9205,25.06,91,100,1.45,SB,1685061135
460,haciqabul,40.0408,48.9445,23.83,57,100,0.34,AZ,1685061135
461,bubaque,11.2833,-15.8333,25.65,84,100,9.41,GW,1685061135
462,brusque,-27.0981,-48.9175,22.28,100,60,0.31,BR,1685061135
463,kapa'a,22.0752,-159.319,27.99,72,40,6.17,US,1685061136
464,saint-georges,12.0564,-61.7485,27.82,83,20,7.2,GD,1685061136
465,hemsby,52.6971,1.6918,8.13,78,6,4.92,GB,1685061136
466,'anat al qadimah,34.4659,41.9331,24.39,55,0,2.63,IQ,1685061137
467,marsa alam,25.0757,34.8918,27.32,36,7,1.86,EG,1685061137
468,yuzhno-kurilsk,44.0306,145.8556,12.88,65,0,3.0,RU,1685060922
469,beloyarskiy,63.7119,66.6722,15.4,63,100,3.69,RU,1685061137
470,gadzhiyevo,69.2551,33.3362,7.6,54,61,3.11,RU,1685061138
471,rabo de peixe,37.8,-25.5833,15.73,77,20,4.12,PT,1685061138
472,bayanaul,50.7889,75.6956,12.28,85,100,2.08,KZ,1685061138
473,fale old settlement,-9.3852,-171.2468,28.43,74,31,4.55,TK,1685060902
474,soto la marina,23.7667,-98.2167,26.81,64,2,4.48,MX,1685061138
475,yanai,33.9667,132.1167,19.0,72,100,1.41,JP,1685061031
476,vikulovo,56.8167,70.6107,11.16,67,6,1.83,RU,1685061139
477,marsh harbour,26.5412,-77.0636,26.27,71,59,3.01,BS,1685061139
478,hunkuyi,11.2668,7.6512,25.27,61,2,2.83,NG,1685061139
479,palafrugell,41.9174,3.1631,14.14,53,11,1.72,ES,1685061140
480,changping,40.2186,116.2197,20.8,42,100,1.98,CN,1685061140
481,pingxiang,27.6167,113.85,26.01,86,100,1.25,CN,1685061004
482,taksimo,56.3444,114.8794,5.15,88,100,1.19,RU,1685060875
483,lakki,32.6079,70.9114,25.3,56,16,2.67,PK,1685061140
484,geraldton,-28.7667,114.6,13.23,58,31,7.72,AU,1685060913
485,bonthe,7.5264,-12.505,26.62,85,100,1.07,SL,1685061141
486,petawawa,45.9001,-77.3328,15.77,31,0,3.09,CA,1685061141
487,laela,-8.5667,32.05,12.97,73,7,1.62,TZ,1685061141
488,kigorobya,1.6162,31.3089,19.8,87,59,1.7,UG,1685061141
489,presque isle,46.6811,-68.0159,4.6,84,100,4.63,US,1685061141
490,hitachi,36.6,140.65,19.81,75,60,4.28,JP,1685060899
491,seaside,36.6111,-121.8516,16.06,77,75,5.14,US,1685060880
492,polyarnyye zori,67.3661,32.4981,5.86,72,98,2.24,RU,1685061142
493,erenhot,43.6475,111.9767,13.75,40,62,9.19,CN,1685061142
494,ocean city,39.2776,-74.5746,14.43,69,10,3.13,US,1685061068
495,santa quiteria do maranhao,-3.5156,-42.5467,23.65,89,61,1.47,BR,1685061143
496,monticello,45.3055,-93.7941,24.19,30,0,5.14,US,1685061143
497,enriquillo,17.9,-71.2333,25.75,88,0,1.06,DO,1685061143
498,el granada,37.5027,-122.4694,22.05,72,100,8.75,US,1685061143
499,i-n-salah,27.1935,2.4607,27.12,11,100,4.89,DZ,1685061143
500,turkestan,43.3333,68.25,19.94,25,0,3.84,KZ,1685061144
501,jumla,29.2747,82.1838,11.79,79,100,1.46,NP,1685061144
502,rio claro,-22.4114,-47.5614,17.54,72,29,1.73,BR,1685061144
503,nassau,40.7507,-73.5829,18.71,50,0,3.6,US,1685061144
504,tinajo,29.0788,-13.7081,18.49,72,20,1.03,ES,1685061145
505,ghazni,33.5536,68.4269,13.78,34,0,3.32,AF,1685061146
506,chany,55.3121,76.7647,9.01,51,8,4.4,RU,1685061146
507,idri,27.5,13.2667,24.11,18,0,4.06,LY,1685061146
508,guane,22.2025,-84.0875,25.01,73,0,2.91,CU,1685061146
509,ensenada,31.8667,-116.6167,17.75,66,3,4.07,MX,1685060921
510,cabedelo,-6.9811,-34.8339,25.37,81,100,5.86,BR,1685061146
511,camana,-16.6228,-72.7111,19.42,86,73,4.07,PE,1685061147
512,nabire,-3.3667,135.4833,29.95,64,8,2.24,ID,1685061147
513,dudinka,69.4058,86.1778,2.57,91,20,5.48,RU,1685061147
514,banda aceh,5.5577,95.3222,28.1,76,100,4.17,ID,1685061148
515,warangal,18.0,79.5833,32.08,38,80,3.52,IN,1685061148
516,egilsstadir,65.2653,-14.3948,6.95,49,0,4.12,IS,1685061148
517,pierre,44.3683,-100.351,28.51,34,0,9.26,US,1685061148
518,senador guiomard,-10.1522,-67.7392,23.86,90,86,1.0,BR,1685061148
519,hovd,48.0056,91.6419,6.24,75,81,1.36,MN,1685060944
520,knyaze-volkonskoye,48.4642,135.4567,19.19,52,100,5.71,RU,1685061149
521,usinsk,65.9939,57.5281,16.75,79,46,7.95,RU,1685060880
522,sargatskoye,55.6101,73.4972,10.03,58,8,3.56,RU,1685061149
523,lakatoro,-16.0999,167.4164,26.33,55,85,4.99,VU,1685061149
524,sao gabriel da cachoeira,-0.1303,-67.0892,23.18,99,100,1.36,BR,1685061149
525,wynyard,-41.0,145.7167,8.88,88,100,5.67,AU,1685061150
526,magdagachi,53.45,125.8,8.67,86,100,2.24,RU,1685061145
527,mishan,45.55,131.8833,20.59,46,100,6.85,CN,1685061150
528,mata-utu,-13.2816,-176.1745,28.51,72,100,5.6,WF,1685061150
529,tromso,69.6496,18.957,4.01,81,75,10.8,NO,1685061150
530,vilyuchinsk,52.9306,158.4028,13.15,73,88,1.61,RU,1685060910
531,puerto baquerizo moreno,-0.9,-89.6,25.47,83,77,4.58,EC,1685061020
532,oskarshamn,57.2645,16.4484,6.66,58,0,4.18,SE,1685061151
533,wanning,18.8003,110.3967,29.3,77,77,3.84,CN,1685061151
534,nova vicosa,-17.8919,-39.3719,22.91,87,25,4.22,BR,1685060937
535,agat village,13.3886,144.6585,28.09,85,100,7.32,GU,1685061152
536,itoman,26.1247,127.6694,25.22,72,20,5.66,JP,1685061152
537,jaisalmer,26.9147,70.9181,27.32,73,17,7.94,IN,1685061152
538,konarka,19.9,86.1167,25.22,65,4,2.02,IN,1685061153
539,thinadhoo,0.5333,72.9333,28.19,75,13,4.1,MV,1685061153
540,fujin,47.26,132.0322,20.93,45,89,8.01,CN,1685061153
541,terenozek,45.05,64.9833,20.73,26,5,3.2,KZ,1685061153
542,goz beida,13.95,20.55,33.65,27,29,2.35,TD,1685061154
543,rio gallegos,-51.6226,-69.2181,0.03,86,0,4.63,AR,1685061154
544,talachyn,54.4097,29.6917,12.98,81,100,2.05,BY,1685061154
545,bridgewater,44.3835,-64.5155,11.79,74,81,4.63,CA,1685061154
546,barcelos,41.5388,-8.6151,19.36,58,0,6.12,PT,1685061154
547,halifax,44.6453,-63.5724,10.25,83,100,7.2,CA,1685061115
548,tisaiyanvilai,8.3333,77.8833,27.65,77,3,4.04,IN,1685061155
549,saint-christol-les-ales,44.0833,4.0833,15.73,89,3,2.37,FR,1685061155
550,astorga,-23.2325,-51.6656,21.13,80,0,3.56,BR,1685061155
551,vrangel',42.7297,133.0839,11.8,92,100,0.96,RU,1685061102
552,coahuayana de hidalgo,18.7,-103.6583,28.17,68,93,1.5,MX,1685061156
553,ardestan,33.3761,52.3694,25.58,29,100,1.76,IR,1685061156
554,kokologo,12.1897,-1.8856,29.92,59,67,4.06,BF,1685061156
555,fort st. john,56.2499,-120.8529,20.94,37,40,0.0,CA,1685061156
556,kerema,-7.9631,145.7785,25.92,84,100,1.92,PG,1685061157
557,kaoma,-14.7833,24.8,14.32,50,0,2.85,ZM,1685061157
558,upington,-28.4478,21.2561,5.21,81,0,1.54,ZA,1685061020
559,greymouth,-42.4667,171.2,14.34,83,96,9.0,NZ,1685061157
560,uttaradit,17.6667,100.5,27.78,64,5,0.68,TH,1685061158
561,haiku-pauwela,20.9219,-156.3051,27.01,62,20,9.77,US,1685061158
562,zigong,29.3416,104.7769,21.71,74,100,0.65,CN,1685061158
563,isangel,-19.55,169.2667,23.99,63,78,5.32,VU,1685061158
564,chinde,26.8418,88.0763,17.92,79,38,0.17,NP,1685061158
565,guaiuba,-4.0397,-38.6372,25.69,91,28,0.58,BR,1685061158
566,la puebla de montalban,39.863,-4.3592,15.35,82,75,2.42,ES,1685061158
